{"created_at": "2022-10-07.15:59:35", "pitch": 5,"roll": -3,"yaw": 0,"vgx": 0,"vgy": 0,"vgz": 0,"templ": 54,"temph": 57,"tof": 10,"h": 0,"bat": 33,"baro": 104.14,"time": 0,"agx": 90.00,"agy": 53.00}
{"created_at": "2022-10-07.15:59:35", "pitch": 5,"roll": -3,"yaw": 0,"vgx": 0,"vgy": 0,"vgz": 0,"templ": 54,"temph": 57,"tof": 10,"h": 0,"bat": 33,"baro": 104.17,"time": 0,"agx": 87.00,"agy": 55.00}
{"created_at": "2022-10-07.15:59:35", "pitch": 5,"roll": -3,"yaw": 0,"vgx": 0,"vgy": 0,"vgz": 0,"templ": 54,"temph": 57,"tof": 10,"h": 0,"bat": 33,"baro": 104.17,"time": 0,"agx": 89.00,"agy": 55.00}
{"created_at": "2022-10-07.15:59:36", "pitch": 5,"roll": -3,"yaw": 0,"vgx": 0,"vgy": 0,"vgz": 0,"templ": 54,"temph": 57,"tof": 10,"h": 0,"bat": 33,"baro": 104.21,"time": 0,"agx": 89.00,"agy": 55.00}
{"created_at": "2022-10-07.15:59:36", "pitch": 5,"roll": -3,"yaw": 0,"vgx": 0,"vgy": 0,"vgz": 0,"templ": 54,"temph": 57,"tof": 10,"h": 0,"bat": 33,"baro": 104.12,"time": 0,"agx": 89.00,"agy": 53.00}
{"created_at": "2022-10-07.15:59:36", "pitch": 5,"roll": -3,"yaw": 0,"vgx": 0,"vgy": 0,"vgz": 0,"templ": 54,"temph": 57,"tof": 10,"h": 0,"bat": 33,"baro": 104.16,"time": 0,"agx": 90.00,"agy": 53.00}
{"created_at": "2022-10-07.15:59:36", "pitch": 5,"roll": -3,"yaw": 0,"vgx": 0,"vgy": 0,"vgz": 0,"templ": 53,"temph": 56,"tof": 10,"h": 0,"bat": 33,"baro": 104.18,"time": 0,"agx": 89.00,"agy": 54.00}
{"created_at": "2022-10-07.15:59:36", "pitch": 5,"roll": -3,"yaw": 0,"vgx": 0,"vgy": 0,"vgz": 0,"templ": 53,"temph": 56,"tof": 10,"h": 0,"bat": 33,"baro": 104.13,"time": 0,"agx": 89.00,"agy": 54.00}
{"created_at": "2022-10-07.15:59:36", "pitch": 5,"roll": -3,"yaw": 0,"vgx": 0,"vgy": 0,"vgz": 0,"templ": 53,"temph": 56,"tof": 10,"h": 0,"bat": 33,"baro": 104.14,"time": 0,"agx": 89.00,"agy": 52.00}
{"created_at": "2022-10-07.15:59:36", "pitch": 5,"roll": -3,"yaw": 0,"vgx": 0,"vgy": 0,"vgz": 0,"templ": 53,"temph": 56,"tof": 10,"h": 0,"bat": 33,"baro": 104.17,"time": 0,"agx": 90.00,"agy": 54.00}
{"created_at": "2022-10-07.15:59:36", "pitch": 5,"roll": -3,"yaw": 0,"vgx": 0,"vgy": 0,"vgz": 0,"templ": 53,"temph": 56,"tof": 10,"h": 0,"bat": 33,"baro": 104.19,"time": 0,"agx": 88.00,"agy": 53.00}
{"created_at": "2022-10-07.15:59:36", "pitch": 5,"roll": -3,"yaw": 0,"vgx": 0,"vgy": 0,"vgz": 0,"templ": 53,"temph": 56,"tof": 10,"h": 0,"bat": 33,"baro": 104.21,"time": 0,"agx": 89.00,"agy": 53.00}
{"created_at": "2022-10-07.15:59:37", "pitch": 5,"roll": -3,"yaw": 0,"vgx": 0,"vgy": 0,"vgz": 0,"templ": 53,"temph": 56,"tof": 10,"h": 0,"bat": 33,"baro": 104.21,"time": 0,"agx": 90.00,"agy": 53.00}
{"created_at": "2022-10-07.15:59:37", "pitch": 5,"roll": -3,"yaw": 0,"vgx": 0,"vgy": 0,"vgz": 0,"templ": 53,"temph": 56,"tof": 10,"h": 0,"bat": 33,"baro": 104.13,"time": 0,"agx": 89.00,"agy": 55.00}
{"created_at": "2022-10-07.15:59:37", "pitch": 5,"roll": -3,"yaw": 0,"vgx": 0,"vgy": 0,"vgz": 0,"templ": 53,"temph": 56,"tof": 10,"h": 0,"bat": 33,"baro": 104.19,"time": 0,"agx": 88.00,"agy": 55.00}
{"created_at": "2022-10-07.15:59:37", "pitch": 5,"roll": -3,"yaw": 0,"vgx": 0,"vgy": 0,"vgz": 0,"templ": 53,"temph": 56,"tof": 10,"h": 0,"bat": 33,"baro": 104.20,"time": 0,"agx": 89.00,"agy": 52.00}
{"created_at": "2022-10-07.15:59:37", "pitch": 5,"roll": -3,"yaw": 0,"vgx": 0,"vgy": 0,"vgz": 0,"templ": 54,"temph": 56,"tof": 10,"h": 0,"bat": 33,"baro": 104.18,"time": 0,"agx": 87.00,"agy": 53.00}
{"created_at": "2022-10-07.15:59:37", "pitch": 5,"roll": -3,"yaw": 0,"vgx": 0,"vgy": 0,"vgz": 0,"templ": 54,"temph": 56,"tof": 10,"h": 0,"bat": 33,"baro": 104.30,"time": 0,"agx": 90.00,"agy": 53.00}
{"created_at": "2022-10-07.15:59:37", "pitch": 5,"roll": -3,"yaw": 0,"vgx": 0,"vgy": 0,"vgz": 0,"templ": 54,"temph": 56,"tof": 10,"h": 0,"bat": 33,"baro": 104.25,"time": 0,"agx": 88.00,"agy": 53.00}
{"created_at": "2022-10-07.15:59:37", "pitch": 5,"roll": -3,"yaw": 0,"vgx": 0,"vgy": 0,"vgz": 0,"templ": 54,"temph": 56,"tof": 10,"h": 0,"bat": 33,"baro": 104.22,"time": 0,"agx": 88.00,"agy": 55.00}
{"created_at": "2022-10-07.15:59:37", "pitch": 5,"roll": -3,"yaw": 0,"vgx": 0,"vgy": 0,"vgz": 0,"templ": 54,"temph": 56,"tof": 10,"h": 0,"bat": 33,"baro": 104.24,"time": 0,"agx": 88.00,"agy": 55.00}
{"created_at": "2022-10-07.15:59:37", "pitch": 5,"roll": -3,"yaw": 0,"vgx": 0,"vgy": 0,"vgz": 0,"templ": 54,"temph": 56,"tof": 10,"h": 0,"bat": 33,"baro": 104.22,"time": 0,"agx": 90.00,"agy": 53.00}
{"created_at": "2022-10-07.15:59:37", "pitch": 5,"roll": -3,"yaw": 0,"vgx": 0,"vgy": 0,"vgz": 0,"templ": 54,"temph": 56,"tof": 10,"h": 0,"bat": 33,"baro": 104.17,"time": 0,"agx": 90.00,"agy": 53.00}
{"created_at": "2022-10-07.15:59:38", "pitch": 5,"roll": -3,"yaw": 0,"vgx": 0,"vgy": 0,"vgz": 0,"templ": 54,"temph": 56,"tof": 10,"h": 0,"bat": 33,"baro": 104.21,"time": 0,"agx": 88.00,"agy": 55.00}
{"created_at": "2022-10-07.15:59:38", "pitch": 5,"roll": -3,"yaw": 0,"vgx": 0,"vgy": 0,"vgz": 0,"templ": 54,"temph": 56,"tof": 10,"h": 0,"bat": 33,"baro": 104.18,"time": 0,"agx": 89.00,"agy": 53.00}
{"created_at": "2022-10-07.15:59:38", "pitch": 5,"roll": -3,"yaw": 0,"vgx": 0,"vgy": 0,"vgz": 0,"templ": 54,"temph": 56,"tof": 10,"h": 0,"bat": 33,"baro": 104.19,"time": 0,"agx": 89.00,"agy": 55.00}
{"created_at": "2022-10-07.15:59:38", "pitch": 5,"roll": -3,"yaw": 0,"vgx": 0,"vgy": 0,"vgz": 0,"templ": 54,"temph": 57,"tof": 10,"h": 0,"bat": 33,"baro": 104.22,"time": 0,"agx": 88.00,"agy": 52.00}
{"created_at": "2022-10-07.15:59:38", "pitch": 5,"roll": -3,"yaw": 0,"vgx": 0,"vgy": 0,"vgz": 0,"templ": 54,"temph": 57,"tof": 10,"h": 0,"bat": 33,"baro": 104.24,"time": 0,"agx": 89.00,"agy": 53.00}
{"created_at": "2022-10-07.15:59:38", "pitch": 5,"roll": -3,"yaw": 0,"vgx": 0,"vgy": 0,"vgz": 0,"templ": 54,"temph": 57,"tof": 10,"h": 0,"bat": 33,"baro": 104.16,"time": 0,"agx": 88.00,"agy": 53.00}
{"created_at": "2022-10-07.15:59:38", "pitch": 5,"roll": -3,"yaw": 0,"vgx": 0,"vgy": 0,"vgz": 0,"templ": 54,"temph": 57,"tof": 10,"h": 0,"bat": 33,"baro": 104.20,"time": 0,"agx": 89.00,"agy": 55.00}
{"created_at": "2022-10-07.15:59:38", "pitch": 5,"roll": -3,"yaw": 0,"vgx": 0,"vgy": 0,"vgz": 0,"templ": 54,"temph": 57,"tof": 10,"h": 0,"bat": 33,"baro": 104.23,"time": 0,"agx": 91.00,"agy": 54.00}
{"created_at": "2022-10-07.15:59:38", "pitch": 5,"roll": -3,"yaw": 0,"vgx": 0,"vgy": 0,"vgz": 0,"templ": 54,"temph": 57,"tof": 10,"h": 0,"bat": 33,"baro": 104.19,"time": 0,"agx": 88.00,"agy": 53.00}
{"created_at": "2022-10-07.15:59:38", "pitch": 5,"roll": -3,"yaw": 0,"vgx": 0,"vgy": 0,"vgz": 0,"templ": 54,"temph": 57,"tof": 10,"h": 0,"bat": 33,"baro": 104.20,"time": 0,"agx": 90.00,"agy": 54.00}
{"created_at": "2022-10-07.15:59:39", "pitch": 5,"roll": -3,"yaw": 0,"vgx": 0,"vgy": 0,"vgz": 0,"templ": 54,"temph": 57,"tof": 10,"h": 0,"bat": 33,"baro": 104.20,"time": 0,"agx": 90.00,"agy": 55.00}
{"created_at": "2022-10-07.15:59:39", "pitch": 5,"roll": -3,"yaw": 0,"vgx": 0,"vgy": 0,"vgz": 0,"templ": 54,"temph": 57,"tof": 10,"h": 0,"bat": 33,"baro": 104.17,"time": 0,"agx": 91.00,"agy": 54.00}
{"created_at": "2022-10-07.15:59:39", "pitch": 5,"roll": -3,"yaw": 0,"vgx": 0,"vgy": 0,"vgz": 0,"templ": 54,"temph": 57,"tof": 10,"h": 0,"bat": 33,"baro": 104.17,"time": 0,"agx": 88.00,"agy": 53.00}
{"created_at": "2022-10-07.15:59:39", "pitch": 5,"roll": -3,"yaw": 0,"vgx": 0,"vgy": 0,"vgz": 0,"templ": 55,"temph": 57,"tof": 10,"h": 0,"bat": 33,"baro": 104.21,"time": 0,"agx": 88.00,"agy": 54.00}
{"created_at": "2022-10-07.15:59:39", "pitch": 5,"roll": -3,"yaw": 0,"vgx": 0,"vgy": 0,"vgz": 0,"templ": 55,"temph": 57,"tof": 10,"h": 0,"bat": 33,"baro": 104.17,"time": 0,"agx": 88.00,"agy": 54.00}
{"created_at": "2022-10-07.15:59:39", "pitch": 5,"roll": -3,"yaw": 0,"vgx": 0,"vgy": 0,"vgz": 0,"templ": 55,"temph": 57,"tof": 10,"h": 0,"bat": 33,"baro": 104.18,"time": 0,"agx": 90.00,"agy": 54.00}
{"created_at": "2022-10-07.15:59:39", "pitch": 5,"roll": -3,"yaw": 0,"vgx": 0,"vgy": 0,"vgz": 0,"templ": 55,"temph": 57,"tof": 10,"h": 0,"bat": 33,"baro": 104.16,"time": 0,"agx": 89.00,"agy": 55.00}
{"created_at": "2022-10-07.15:59:39", "pitch": 5,"roll": -3,"yaw": 0,"vgx": 0,"vgy": 0,"vgz": 0,"templ": 55,"temph": 57,"tof": 10,"h": 0,"bat": 33,"baro": 104.18,"time": 0,"agx": 89.00,"agy": 54.00}
{"created_at": "2022-10-07.15:59:39", "pitch": 5,"roll": -3,"yaw": 0,"vgx": 0,"vgy": 0,"vgz": 0,"templ": 55,"temph": 57,"tof": 10,"h": 0,"bat": 33,"baro": 104.21,"time": 0,"agx": 89.00,"agy": 54.00}
{"created_at": "2022-10-07.15:59:40", "pitch": 5,"roll": -3,"yaw": 0,"vgx": 0,"vgy": 0,"vgz": 0,"templ": 55,"temph": 57,"tof": 10,"h": 0,"bat": 33,"baro": 104.18,"time": 0,"agx": 88.00,"agy": 53.00}
{"created_at": "2022-10-07.15:59:40", "pitch": 5,"roll": -3,"yaw": 0,"vgx": 0,"vgy": 0,"vgz": 0,"templ": 55,"temph": 57,"tof": 10,"h": 0,"bat": 33,"baro": 104.16,"time": 0,"agx": 88.00,"agy": 53.00}
{"created_at": "2022-10-07.15:59:40", "pitch": 5,"roll": -3,"yaw": 0,"vgx": 0,"vgy": 0,"vgz": 0,"templ": 55,"temph": 57,"tof": 10,"h": 0,"bat": 33,"baro": 104.21,"time": 0,"agx": 88.00,"agy": 54.00}
{"created_at": "2022-10-07.15:59:40", "pitch": 5,"roll": -3,"yaw": 0,"vgx": 0,"vgy": 0,"vgz": 0,"templ": 55,"temph": 57,"tof": 10,"h": 0,"bat": 33,"baro": 104.15,"time": 0,"agx": 89.00,"agy": 54.00}
{"created_at": "2022-10-07.15:59:40", "pitch": 5,"roll": -3,"yaw": 0,"vgx": 0,"vgy": 0,"vgz": 0,"templ": 55,"temph": 57,"tof": 10,"h": 0,"bat": 33,"baro": 104.16,"time": 0,"agx": 89.00,"agy": 53.00}
{"created_at": "2022-10-07.15:59:40", "pitch": 5,"roll": -3,"yaw": 0,"vgx": 0,"vgy": 0,"vgz": 0,"templ": 55,"temph": 57,"tof": 10,"h": 0,"bat": 33,"baro": 104.21,"time": 0,"agx": 89.00,"agy": 54.00}
{"created_at": "2022-10-07.15:59:40", "pitch": 5,"roll": -3,"yaw": 0,"vgx": 0,"vgy": 0,"vgz": 0,"templ": 55,"temph": 57,"tof": 10,"h": 0,"bat": 33,"baro": 104.18,"time": 0,"agx": 89.00,"agy": 53.00}
{"created_at": "2022-10-07.15:59:40", "pitch": 4,"roll": -3,"yaw": 0,"vgx": 0,"vgy": 0,"vgz": 0,"templ": 55,"temph": 57,"tof": 10,"h": 0,"bat": 33,"baro": 104.21,"time": 0,"agx": 83.00,"agy": 49.00}
{"created_at": "2022-10-07.15:59:40", "pitch": 5,"roll": -3,"yaw": 0,"vgx": 0,"vgy": 0,"vgz": 0,"templ": 55,"temph": 57,"tof": 10,"h": 0,"bat": 33,"baro": 104.14,"time": 0,"agx": 78.00,"agy": 48.00}
{"created_at": "2022-10-07.15:59:40", "pitch": 4,"roll": -3,"yaw": 0,"vgx": 0,"vgy": 0,"vgz": 0,"templ": 55,"temph": 57,"tof": 10,"h": 0,"bat": 33,"baro": 104.18,"time": 0,"agx": 93.00,"agy": 72.00}
{"created_at": "2022-10-07.15:59:40", "pitch": 4,"roll": -3,"yaw": 0,"vgx": 0,"vgy": 0,"vgz": 0,"templ": 55,"temph": 57,"tof": 10,"h": 0,"bat": 33,"baro": 104.18,"time": 0,"agx": 79.00,"agy": 59.00}
{"created_at": "2022-10-07.15:59:41", "pitch": 6,"roll": -4,"yaw": 0,"vgx": 0,"vgy": 0,"vgz": 0,"templ": 55,"temph": 57,"tof": 10,"h": 0,"bat": 33,"baro": 104.12,"time": 0,"agx": -4.00,"agy": 67.00}
{"created_at": "2022-10-07.15:59:41", "pitch": 6,"roll": -4,"yaw": -2,"vgx": 0,"vgy": 0,"vgz": -2,"templ": 55,"temph": 57,"tof": 10,"h": 0,"bat": 33,"baro": 104.24,"time": 0,"agx": 228.00,"agy": -73.00}
{"created_at": "2022-10-07.15:59:41", "pitch": 7,"roll": 1,"yaw": -2,"vgx": 0,"vgy": -1,"vgz": -4,"templ": 55,"temph": 57,"tof": 10,"h": 0,"bat": 33,"baro": 104.26,"time": 0,"agx": 96.00,"agy": -36.00}
{"created_at": "2022-10-07.15:59:41", "pitch": 8,"roll": 8,"yaw": -1,"vgx": 0,"vgy": -1,"vgz": -6,"templ": 56,"temph": 57,"tof": 10,"h": 0,"bat": 33,"baro": 104.36,"time": 0,"agx": 223.00,"agy": -134.00}
{"created_at": "2022-10-07.15:59:41", "pitch": 4,"roll": 11,"yaw": 1,"vgx": 0,"vgy": -1,"vgz": -6,"templ": 56,"temph": 57,"tof": 10,"h": 10,"bat": 33,"baro": 104.46,"time": 0,"agx": 82.00,"agy": -31.00}
{"created_at": "2022-10-07.15:59:41", "pitch": 2,"roll": 11,"yaw": 0,"vgx": 0,"vgy": 0,"vgz": -6,"templ": 56,"temph": 57,"tof": 10,"h": 10,"bat": 33,"baro": 104.49,"time": 0,"agx": 93.00,"agy": -204.00}
{"created_at": "2022-10-07.15:59:41", "pitch": 3,"roll": 9,"yaw": -3,"vgx": 1,"vgy": 0,"vgz": -6,"templ": 56,"temph": 57,"tof": 32,"h": 20,"bat": 33,"baro": 104.58,"time": 0,"agx": 38.00,"agy": -203.00}
{"created_at": "2022-10-07.15:59:41", "pitch": 1,"roll": 9,"yaw": -7,"vgx": 0,"vgy": 0,"vgz": -5,"templ": 56,"temph": 57,"tof": 35,"h": 30,"bat": 33,"baro": 104.57,"time": 0,"agx": -13.00,"agy": -240.00}
{"created_at": "2022-10-07.15:59:41", "pitch": 0,"roll": 17,"yaw": -13,"vgx": 1,"vgy": -1,"vgz": -7,"templ": 56,"temph": 57,"tof": 89,"h": 40,"bat": 33,"baro": 104.66,"time": 0,"agx": 139.00,"agy": -398.00}
{"created_at": "2022-10-07.15:59:42", "pitch": 5,"roll": 32,"yaw": -12,"vgx": 2,"vgy": -1,"vgz": -9,"templ": 56,"temph": 57,"tof": 109,"h": 50,"bat": 33,"baro": 104.73,"time": 0,"agx": 232.00,"agy": -487.00}
{"created_at": "2022-10-07.15:59:42", "pitch": 13,"roll": 56,"yaw": -5,"vgx": 3,"vgy": 0,"vgz": -10,"templ": 56,"temph": 57,"tof": 71,"h": 60,"bat": 33,"baro": 104.80,"time": 0,"agx": 118.00,"agy": -508.00}
{"created_at": "2022-10-07.15:59:42", "pitch": 18,"roll": 78,"yaw": 0,"vgx": 3,"vgy": 1,"vgz": -9,"templ": 56,"temph": 57,"tof": 61,"h": 70,"bat": 33,"baro": 104.92,"time": 0,"agx": 316.00,"agy": -787.00}
{"created_at": "2022-10-07.15:59:42", "pitch": 22,"roll": 98,"yaw": 5,"vgx": 4,"vgy": 2,"vgz": -8,"templ": 56,"temph": 57,"tof": 62,"h": 80,"bat": 33,"baro": 105.02,"time": 0,"agx": 603.00,"agy": -919.00}
{"created_at": "2022-10-07.15:59:42", "pitch": 25,"roll": 124,"yaw": 26,"vgx": 4,"vgy": 5,"vgz": -8,"templ": 56,"temph": 59,"tof": 76,"h": 90,"bat": 33,"baro": 105.05,"time": 0,"agx": 404.00,"agy": -904.00}
{"created_at": "2022-10-07.15:59:42", "pitch": 20,"roll": 152,"yaw": 52,"vgx": 1,"vgy": 7,"vgz": -6,"templ": 56,"temph": 59,"tof": 101,"h": 100,"bat": 33,"baro": 105.17,"time": 0,"agx": 142.00,"agy": -728.00}
{"created_at": "2022-10-07.15:59:42", "pitch": 6,"roll": 176,"yaw": 77,"vgx": -2,"vgy": 8,"vgz": -3,"templ": 56,"temph": 59,"tof": 84,"h": 110,"bat": 33,"baro": 105.10,"time": 0,"agx": -270.00,"agy": -421.00}
{"created_at": "2022-10-07.15:59:42", "pitch": -8,"roll": -159,"yaw": 92,"vgx": -5,"vgy": 5,"vgz": 0,"templ": 56,"temph": 59,"tof": 91,"h": 110,"bat": 33,"baro": 105.07,"time": 0,"agx": -299.00,"agy": -64.00}
{"created_at": "2022-10-07.15:59:42", "pitch": -21,"roll": -144,"yaw": 100,"vgx": -5,"vgy": 3,"vgz": 3,"templ": 56,"temph": 59,"tof": 115,"h": 100,"bat": 33,"baro": 105.07,"time": 0,"agx": -490.00,"agy": 284.00}
{"created_at": "2022-10-07.15:59:42", "pitch": -38,"roll": -135,"yaw": 107,"vgx": 0,"vgy": 0,"vgz": 6,"templ": 56,"temph": 59,"tof": 172,"h": 100,"bat": 33,"baro": 105.02,"time": 0,"agx": -738.00,"agy": 518.00}
{"created_at": "2022-10-07.15:59:42", "pitch": -54,"roll": -135,"yaw": 117,"vgx": 0,"vgy": 0,"vgz": 7,"templ": 56,"temph": 59,"tof": 257,"h": 90,"bat": 33,"baro": 104.91,"time": 0,"agx": -664.00,"agy": 176.00}
{"created_at": "2022-10-07.15:59:43", "pitch": -62,"roll": -127,"yaw": 119,"vgx": 0,"vgy": 0,"vgz": 8,"templ": 56,"temph": 59,"tof": 296,"h": 80,"bat": 33,"baro": 104.84,"time": 0,"agx": -689.00,"agy": 99.00}
{"created_at": "2022-10-07.15:59:43", "pitch": -58,"roll": -113,"yaw": 108,"vgx": 0,"vgy": 0,"vgz": 8,"templ": 56,"temph": 59,"tof": 288,"h": 70,"bat": 33,"baro": 104.75,"time": 0,"agx": -832.00,"agy": 614.00}
{"created_at": "2022-10-07.15:59:43", "pitch": -46,"roll": -109,"yaw": 106,"vgx": 0,"vgy": 0,"vgz": 8,"templ": 56,"temph": 59,"tof": 290,"h": 60,"bat": 33,"baro": 104.69,"time": 0,"agx": -784.00,"agy": 612.00}
{"created_at": "2022-10-07.15:59:43", "pitch": -23,"roll": -117,"yaw": 111,"vgx": 0,"vgy": 0,"vgz": 8,"templ": 55,"temph": 57,"tof": 302,"h": 50,"bat": 33,"baro": 104.55,"time": 0,"agx": -244.00,"agy": 836.00}
{"created_at": "2022-10-07.15:59:43", "pitch": 28,"roll": -138,"yaw": 112,"vgx": 0,"vgy": 0,"vgz": 4,"templ": 55,"temph": 57,"tof": 85,"h": 50,"bat": 33,"baro": 104.45,"time": 0,"agx": 634.00,"agy": 1072.00}
{"created_at": "2022-10-07.15:59:43", "pitch": 77,"roll": 138,"yaw": 52,"vgx": 0,"vgy": 0,"vgz": 4,"templ": 55,"temph": 57,"tof": 57,"h": 40,"bat": 33,"baro": 104.39,"time": 0,"agx": 1585.00,"agy": -352.00}
{"created_at": "2022-10-07.15:59:43", "pitch": 57,"roll": 46,"yaw": -33,"vgx": 0,"vgy": 0,"vgz": 0,"templ": 55,"temph": 57,"tof": 66,"h": 40,"bat": 33,"baro": 104.44,"time": 0,"agx": 913.00,"agy": -289.00}
{"created_at": "2022-10-07.15:59:43", "pitch": 22,"roll": 17,"yaw": -37,"vgx": 0,"vgy": 0,"vgz": -4,"templ": 55,"temph": 57,"tof": 111,"h": 40,"bat": 33,"baro": 104.47,"time": 0,"agx": 657.00,"agy": 463.00}
{"created_at": "2022-10-07.15:59:43", "pitch": -1,"roll": 1,"yaw": -36,"vgx": 0,"vgy": 0,"vgz": -10,"templ": 55,"temph": 57,"tof": 35,"h": 50,"bat": 33,"baro": 104.56,"time": 0,"agx": -137.00,"agy": -261.00}
{"created_at": "2022-10-07.15:59:43", "pitch": 1,"roll": 7,"yaw": -48,"vgx": 0,"vgy": 0,"vgz": -6,"templ": 55,"temph": 57,"tof": 39,"h": 50,"bat": 33,"baro": 104.66,"time": 0,"agx": 491.00,"agy": -808.00}
{"created_at": "2022-10-07.15:59:44", "pitch": 12,"roll": 3,"yaw": -46,"vgx": 0,"vgy": 0,"vgz": -4,"templ": 55,"temph": 57,"tof": 50,"h": 60,"bat": 33,"baro": 104.70,"time": 0,"agx": 269.00,"agy": -215.00}
{"created_at": "2022-10-07.15:59:44", "pitch": 17,"roll": 5,"yaw": -42,"vgx": 0,"vgy": 0,"vgz": -5,"templ": 55,"temph": 57,"tof": 121,"h": 60,"bat": 33,"baro": 104.72,"time": 0,"agx": 269.00,"agy": -113.00}
{"created_at": "2022-10-07.15:59:44", "pitch": 22,"roll": 11,"yaw": -43,"vgx": 0,"vgy": 0,"vgz": -5,"templ": 55,"temph": 57,"tof": 139,"h": 70,"bat": 33,"baro": 104.74,"time": 0,"agx": 593.00,"agy": 26.00}
{"created_at": "2022-10-07.15:59:44", "pitch": 31,"roll": 25,"yaw": -32,"vgx": 0,"vgy": 0,"vgz": -8,"templ": 55,"temph": 58,"tof": 87,"h": 80,"bat": 33,"baro": 104.93,"time": 0,"agx": 1012.00,"agy": -294.00}
{"created_at": "2022-10-07.15:59:44", "pitch": 38,"roll": 57,"yaw": 0,"vgx": 0,"vgy": 0,"vgz": -11,"templ": 55,"temph": 58,"tof": 62,"h": 80,"bat": 33,"baro": 104.97,"time": 0,"agx": 822.00,"agy": -730.00}
{"created_at": "2022-10-07.15:59:44", "pitch": 36,"roll": 116,"yaw": 28,"vgx": 0,"vgy": 0,"vgz": -13,"templ": 55,"temph": 58,"tof": 64,"h": 100,"bat": 33,"baro": 105.12,"time": 0,"agx": 25.00,"agy": -428.00}
{"created_at": "2022-10-07.15:59:44", "pitch": 22,"roll": 142,"yaw": 51,"vgx": 0,"vgy": 0,"vgz": -6,"templ": 55,"temph": 58,"tof": 98,"h": 110,"bat": 33,"baro": 105.21,"time": 0,"agx": 63.00,"agy": -534.00}
{"created_at": "2022-10-07.15:59:44", "pitch": 11,"roll": 154,"yaw": 59,"vgx": 0,"vgy": 0,"vgz": -3,"templ": 55,"temph": 58,"tof": 88,"h": 110,"bat": 33,"baro": 105.21,"time": 0,"agx": -39.00,"agy": -178.00}
{"created_at": "2022-10-07.15:59:44", "pitch": 2,"roll": 156,"yaw": 57,"vgx": 0,"vgy": 0,"vgz": -1,"templ": 55,"temph": 58,"tof": 82,"h": 110,"bat": 33,"baro": 105.26,"time": 0,"agx": 178.00,"agy": -391.00}
{"created_at": "2022-10-07.15:59:45", "pitch": -10,"roll": 169,"yaw": 61,"vgx": 0,"vgy": 0,"vgz": 0,"templ": 55,"temph": 58,"tof": 77,"h": 110,"bat": 33,"baro": 105.24,"time": 0,"agx": -209.00,"agy": -248.00}
{"created_at": "2022-10-07.15:59:45", "pitch": -18,"roll": 164,"yaw": 69,"vgx": 0,"vgy": 0,"vgz": 1,"templ": 55,"temph": 58,"tof": 83,"h": 110,"bat": 33,"baro": 105.27,"time": 0,"agx": -412.00,"agy": -20.00}
{"created_at": "2022-10-07.15:59:45", "pitch": -24,"roll": 145,"yaw": 69,"vgx": 0,"vgy": 0,"vgz": 4,"templ": 55,"temph": 58,"tof": 100,"h": 110,"bat": 33,"baro": 105.20,"time": 0,"agx": -682.00,"agy": 47.00}
{"created_at": "2022-10-07.15:59:45", "pitch": -31,"roll": 114,"yaw": 65,"vgx": 0,"vgy": 0,"vgz": 8,"templ": 55,"temph": 58,"tof": 68,"h": 110,"bat": 33,"baro": 105.08,"time": 0,"agx": -565.00,"agy": 98.00}
{"created_at": "2022-10-07.15:59:45", "pitch": -29,"roll": 59,"yaw": 69,"vgx": 0,"vgy": 0,"vgz": 13,"templ": 55,"temph": 58,"tof": 62,"h": 90,"bat": 33,"baro": 104.93,"time": 0,"agx": -135.00,"agy": -395.00}
{"created_at": "2022-10-07.15:59:45", "pitch": -16,"roll": 24,"yaw": 62,"vgx": 0,"vgy": 0,"vgz": 12,"templ": 55,"temph": 58,"tof": 65,"h": 80,"bat": 33,"baro": 104.82,"time": 0,"agx": 400.00,"agy": 60.00}
{"created_at": "2022-10-07.15:59:45", "pitch": -6,"roll": -1,"yaw": 55,"vgx": 0,"vgy": 0,"vgz": 11,"templ": 55,"temph": 58,"tof": 65,"h": 70,"bat": 33,"baro": 104.65,"time": 0,"agx": 17.00,"agy": 262.00}
{"created_at": "2022-10-07.15:59:45", "pitch": 2,"roll": -17,"yaw": 50,"vgx": 0,"vgy": 0,"vgz": 9,"templ": 55,"temph": 58,"tof": 53,"h": 60,"bat": 33,"baro": 104.56,"time": 0,"agx": 263.00,"agy": 518.00}
{"created_at": "2022-10-07.15:59:45", "pitch": 13,"roll": -32,"yaw": 49,"vgx": 0,"vgy": 0,"vgz": 6,"templ": 55,"temph": 58,"tof": 42,"h": 50,"bat": 33,"baro": 104.51,"time": 0,"agx": 231.00,"agy": 695.00}
{"created_at": "2022-10-07.15:59:45", "pitch": 19,"roll": -44,"yaw": 48,"vgx": 0,"vgy": 0,"vgz": 4,"templ": 55,"temph": 58,"tof": 30,"h": 40,"bat": 33,"baro": 104.50,"time": 0,"agx": 333.00,"agy": 728.00}
{"created_at": "2022-10-07.15:59:46", "pitch": 22,"roll": -45,"yaw": 43,"vgx": 0,"vgy": 0,"vgz": 2,"templ": 55,"temph": 58,"tof": 10,"h": 40,"bat": 33,"baro": 104.47,"time": 0,"agx": 427.00,"agy": 845.00}
{"created_at": "2022-10-07.15:59:46", "pitch": 24,"roll": -31,"yaw": 50,"vgx": 0,"vgy": 0,"vgz": -1,"templ": 55,"temph": 58,"tof": 37,"h": 40,"bat": 33,"baro": 104.52,"time": 0,"agx": 912.00,"agy": 424.00}
{"created_at": "2022-10-07.15:59:46", "pitch": 25,"roll": -2,"yaw": 63,"vgx": 0,"vgy": 0,"vgz": -8,"templ": 55,"temph": 58,"tof": 83,"h": 40,"bat": 33,"baro": 104.67,"time": 0,"agx": 1129.00,"agy": 149.00}
{"created_at": "2022-10-07.15:59:46", "pitch": 47,"roll": 31,"yaw": 87,"vgx": 0,"vgy": 0,"vgz": -17,"templ": 55,"temph": 58,"tof": 70,"h": 60,"bat": 33,"baro": 104.89,"time": 0,"agx": 1105.00,"agy": 234.00}
{"created_at": "2022-10-07.15:59:46", "pitch": 60,"roll": 100,"yaw": 151,"vgx": 0,"vgy": 0,"vgz": -21,"templ": 57,"temph": 58,"tof": 52,"h": 80,"bat": 33,"baro": 105.01,"time": 0,"agx": 710.00,"agy": 203.00}
{"created_at": "2022-10-07.15:59:46", "pitch": 40,"roll": 157,"yaw": -151,"vgx": 0,"vgy": 0,"vgz": -14,"templ": 57,"temph": 58,"tof": 121,"h": 100,"bat": 33,"baro": 105.11,"time": 0,"agx": 286.00,"agy": 7.00}
{"created_at": "2022-10-07.15:59:46", "pitch": 21,"roll": 168,"yaw": -137,"vgx": 0,"vgy": 0,"vgz": -6,"templ": 57,"temph": 58,"tof": 92,"h": 110,"bat": 33,"baro": 105.22,"time": 0,"agx": 368.00,"agy": -392.00}
{"created_at": "2022-10-07.15:59:46", "pitch": 6,"roll": 169,"yaw": -142,"vgx": 0,"vgy": 0,"vgz": 0,"templ": 57,"temph": 58,"tof": 82,"h": 110,"bat": 33,"baro": 105.27,"time": 0,"agx": 504.00,"agy": -13.00}
{"created_at": "2022-10-07.15:59:46", "pitch": -3,"roll": 175,"yaw": -153,"vgx": 0,"vgy": 0,"vgz": 3,"templ": 57,"temph": 58,"tof": 83,"h": 110,"bat": 33,"baro": 105.27,"time": 0,"agx": 253.00,"agy": 103.00}
{"created_at": "2022-10-07.15:59:46", "pitch": -12,"roll": -169,"yaw": -169,"vgx": 0,"vgy": 0,"vgz": 9,"templ": 57,"temph": 58,"tof": 96,"h": 100,"bat": 33,"baro": 105.13,"time": 0,"agx": 85.00,"agy": 975.00}
{"created_at": "2022-10-07.15:59:47", "pitch": -15,"roll": -148,"yaw": 166,"vgx": 0,"vgy": 0,"vgz": 14,"templ": 57,"temph": 58,"tof": 130,"h": 90,"bat": 33,"baro": 105.02,"time": 0,"agx": 98.00,"agy": 1572.00}
{"created_at": "2022-10-07.15:59:47", "pitch": -7,"roll": -128,"yaw": 139,"vgx": 0,"vgy": 0,"vgz": 14,"templ": 57,"temph": 58,"tof": 162,"h": 80,"bat": 33,"baro": 104.87,"time": 0,"agx": -136.00,"agy": 1873.00}
{"created_at": "2022-10-07.15:59:47", "pitch": 0,"roll": -116,"yaw": 120,"vgx": 0,"vgy": 0,"vgz": 9,"templ": 57,"temph": 58,"tof": 238,"h": 70,"bat": 33,"baro": 104.75,"time": 0,"agx": 47.00,"agy": 1547.00}
{"created_at": "2022-10-07.15:59:47", "pitch": 11,"roll": -109,"yaw": 105,"vgx": 0,"vgy": 0,"vgz": 6,"templ": 57,"temph": 58,"tof": 281,"h": 60,"bat": 33,"baro": 104.66,"time": 0,"agx": 365.00,"agy": 1527.00}
{"created_at": "2022-10-07.15:59:47", "pitch": 30,"roll": -104,"yaw": 90,"vgx": 0,"vgy": 0,"vgz": 2,"templ": 56,"temph": 58,"tof": 447,"h": 50,"bat": 33,"baro": 104.65,"time": 0,"agx": 577.00,"agy": 1337.00}
{"created_at": "2022-10-07.15:59:47", "pitch": 49,"roll": -103,"yaw": 77,"vgx": 0,"vgy": 0,"vgz": 0,"templ": 56,"temph": 58,"tof": 261,"h": 50,"bat": 32,"baro": 104.65,"time": 0,"agx": 727.00,"agy": 1079.00}
{"created_at": "2022-10-07.15:59:47", "pitch": 73,"roll": -109,"yaw": 62,"vgx": 0,"vgy": 0,"vgz": -2,"templ": 56,"temph": 58,"tof": 144,"h": 60,"bat": 32,"baro": 104.67,"time": 0,"agx": 1149.00,"agy": 572.00}
{"created_at": "2022-10-07.15:59:47", "pitch": 80,"roll": 97,"yaw": -97,"vgx": 0,"vgy": 0,"vgz": -3,"templ": 56,"temph": 58,"tof": 140,"h": 60,"bat": 32,"baro": 104.74,"time": 0,"agx": 1187.00,"agy": -23.00}
{"created_at": "2022-10-07.15:59:47", "pitch": 59,"roll": 89,"yaw": -112,"vgx": 0,"vgy": 0,"vgz": -5,"templ": 56,"temph": 58,"tof": 152,"h": 60,"bat": 32,"baro": 104.80,"time": 0,"agx": 1322.00,"agy": -155.00}
{"created_at": "2022-10-07.15:59:47", "pitch": 32,"roll": 90,"yaw": -116,"vgx": 0,"vgy": 0,"vgz": -6,"templ": 56,"temph": 58,"tof": 155,"h": 70,"bat": 32,"baro": 104.82,"time": 0,"agx": 1080.00,"agy": -417.00}
{"created_at": "2022-10-07.15:59:48", "pitch": 8,"roll": 89,"yaw": -112,"vgx": 0,"vgy": 0,"vgz": -4,"templ": 56,"temph": 58,"tof": 150,"h": 80,"bat": 32,"baro": 104.99,"time": 0,"agx": 592.00,"agy": -801.00}
{"created_at": "2022-10-07.15:59:48", "pitch": -6,"roll": 84,"yaw": -108,"vgx": 0,"vgy": 0,"vgz": -1,"templ": 56,"temph": 58,"tof": 148,"h": 80,"bat": 32,"baro": 104.99,"time": 0,"agx": -154.00,"agy": -737.00}
{"created_at": "2022-10-07.15:59:48", "pitch": -21,"roll": 77,"yaw": -104,"vgx": 0,"vgy": 0,"vgz": 1,"templ": 56,"temph": 58,"tof": 173,"h": 80,"bat": 32,"baro": 104.89,"time": 0,"agx": -574.00,"agy": -351.00}
{"created_at": "2022-10-07.15:59:48", "pitch": -32,"roll": 65,"yaw": -98,"vgx": 0,"vgy": 0,"vgz": 5,"templ": 56,"temph": 58,"tof": 131,"h": 80,"bat": 32,"baro": 104.90,"time": 0,"agx": -176.00,"agy": -549.00}
{"created_at": "2022-10-07.15:59:48", "pitch": -41,"roll": 53,"yaw": -87,"vgx": 0,"vgy": 0,"vgz": 7,"templ": 56,"temph": 58,"tof": 109,"h": 70,"bat": 32,"baro": 104.82,"time": 0,"agx": -400.00,"agy": -367.00}
{"created_at": "2022-10-07.15:59:48", "pitch": -49,"roll": 39,"yaw": -67,"vgx": 0,"vgy": 0,"vgz": 9,"templ": 56,"temph": 58,"tof": 66,"h": 60,"bat": 32,"baro": 104.73,"time": 0,"agx": -591.00,"agy": -16.00}
{"created_at": "2022-10-07.15:59:48", "pitch": -50,"roll": 23,"yaw": -40,"vgx": 0,"vgy": 0,"vgz": 9,"templ": 56,"temph": 58,"tof": 40,"h": 50,"bat": 32,"baro": 104.61,"time": 0,"agx": -54.00,"agy": 379.00}
{"created_at": "2022-10-07.15:59:48", "pitch": -24,"roll": 15,"yaw": -20,"vgx": 0,"vgy": 0,"vgz": 7,"templ": 56,"temph": 58,"tof": 10,"h": 50,"bat": 32,"baro": 104.58,"time": 0,"agx": 355.00,"agy": 755.00}
{"created_at": "2022-10-07.15:59:48", "pitch": 20,"roll": 1,"yaw": -9,"vgx": 0,"vgy": 0,"vgz": -2,"templ": 56,"temph": 58,"tof": 86,"h": 40,"bat": 32,"baro": 104.55,"time": 0,"agx": 291.00,"agy": 562.00}
{"created_at": "2022-10-07.15:59:48", "pitch": 59,"roll": -38,"yaw": -24,"vgx": 0,"vgy": 0,"vgz": -10,"templ": 56,"temph": 58,"tof": 97,"h": 50,"bat": 32,"baro": 104.65,"time": 0,"agx": 1400.00,"agy": 559.00}
{"created_at": "2022-10-07.15:59:49", "pitch": 73,"roll": -112,"yaw": -89,"vgx": 0,"vgy": 0,"vgz": -12,"templ": 56,"temph": 58,"tof": 87,"h": 60,"bat": 32,"baro": 104.77,"time": 0,"agx": 1251.00,"agy": 682.00}
{"created_at": "2022-10-07.15:59:49", "pitch": 58,"roll": -179,"yaw": -158,"vgx": 0,"vgy": 0,"vgz": -14,"templ": 56,"temph": 58,"tof": 121,"h": 80,"bat": 32,"baro": 104.96,"time": 0,"agx": 1034.00,"agy": 537.00}
{"created_at": "2022-10-07.15:59:49", "pitch": 35,"roll": 168,"yaw": -174,"vgx": 0,"vgy": 0,"vgz": -12,"templ": 56,"temph": 58,"tof": 110,"h": 90,"bat": 32,"baro": 105.14,"time": 0,"agx": 366.00,"agy": 78.00}
{"created_at": "2022-10-07.15:59:49", "pitch": 16,"roll": 169,"yaw": -179,"vgx": 0,"vgy": 0,"vgz": -6,"templ": 56,"temph": 58,"tof": 93,"h": 100,"bat": 32,"baro": 105.09,"time": 0,"agx": 164.00,"agy": 56.00}
{"created_at": "2022-10-07.15:59:49", "pitch": -3,"roll": 173,"yaw": 176,"vgx": 0,"vgy": 0,"vgz": 0,"templ": 57,"temph": 59,"tof": 94,"h": 100,"bat": 32,"baro": 105.09,"time": 0,"agx": -117.00,"agy": 78.00}
{"created_at": "2022-10-07.15:59:49", "pitch": -14,"roll": -179,"yaw": 171,"vgx": 0,"vgy": 0,"vgz": 6,"templ": 57,"temph": 59,"tof": 106,"h": 100,"bat": 32,"baro": 105.14,"time": 0,"agx": -59.00,"agy": -128.00}
{"created_at": "2022-10-07.15:59:49", "pitch": -20,"roll": -160,"yaw": 148,"vgx": 0,"vgy": 0,"vgz": 12,"templ": 57,"temph": 59,"tof": 147,"h": 90,"bat": 32,"baro": 104.98,"time": 0,"agx": -31.00,"agy": 666.00}
{"created_at": "2022-10-07.15:59:49", "pitch": -21,"roll": -133,"yaw": 125,"vgx": 0,"vgy": 0,"vgz": 17,"templ": 57,"temph": 59,"tof": 247,"h": 80,"bat": 32,"baro": 104.80,"time": 0,"agx": -94.00,"agy": 1960.00}
{"created_at": "2022-10-07.15:59:49", "pitch": -16,"roll": -118,"yaw": 102,"vgx": 0,"vgy": 0,"vgz": 13,"templ": 57,"temph": 59,"tof": 306,"h": 60,"bat": 32,"baro": 104.67,"time": 0,"agx": -226.00,"agy": 1441.00}
{"created_at": "2022-10-07.15:59:49", "pitch": -4,"roll": -109,"yaw": 82,"vgx": 0,"vgy": 0,"vgz": 9,"templ": 57,"temph": 59,"tof": 243,"h": 50,"bat": 32,"baro": 104.60,"time": 0,"agx": 46.00,"agy": 1921.00}
{"created_at": "2022-10-07.15:59:50", "pitch": 13,"roll": -108,"yaw": 64,"vgx": 0,"vgy": 0,"vgz": 2,"templ": 57,"temph": 59,"tof": 164,"h": 40,"bat": 32,"baro": 104.60,"time": 0,"agx": 221.00,"agy": 2047.00}
{"created_at": "2022-10-07.15:59:50", "pitch": 36,"roll": -119,"yaw": 45,"vgx": 0,"vgy": 0,"vgz": -5,"templ": 57,"temph": 59,"tof": 167,"h": 40,"bat": 32,"baro": 104.72,"time": 0,"agx": 618.00,"agy": 1435.00}
{"created_at": "2022-10-07.15:59:50", "pitch": 64,"roll": -177,"yaw": -13,"vgx": 0,"vgy": 0,"vgz": -9,"templ": 57,"temph": 59,"tof": 161,"h": 50,"bat": 32,"baro": 104.87,"time": 0,"agx": 715.00,"agy": 303.00}
{"created_at": "2022-10-07.15:59:50", "pitch": 42,"roll": 106,"yaw": -92,"vgx": 0,"vgy": 0,"vgz": -5,"templ": 57,"temph": 59,"tof": 160,"h": 60,"bat": 32,"baro": 104.84,"time": 0,"agx": 664.00,"agy": -469.00}
{"created_at": "2022-10-07.15:59:50", "pitch": 16,"roll": 108,"yaw": -100,"vgx": 0,"vgy": 0,"vgz": -2,"templ": 56,"temph": 58,"tof": 197,"h": 70,"bat": 32,"baro": 104.87,"time": 0,"agx": -435.00,"agy": -1072.00}
{"created_at": "2022-10-07.15:59:50", "pitch": 18,"roll": 145,"yaw": -74,"vgx": 0,"vgy": 0,"vgz": -1,"templ": 56,"temph": 58,"tof": 120,"h": 70,"bat": 32,"baro": 104.92,"time": 0,"agx": 56.00,"agy": -269.00}
{"created_at": "2022-10-07.15:59:50", "pitch": 9,"roll": -170,"yaw": -37,"vgx": 0,"vgy": 0,"vgz": 0,"templ": 56,"temph": 58,"tof": 65,"h": 70,"bat": 32,"baro": 104.89,"time": 0,"agx": -440.00,"agy": 392.00}
{"created_at": "2022-10-07.15:59:50", "pitch": -21,"roll": -148,"yaw": -18,"vgx": 0,"vgy": 0,"vgz": 7,"templ": 56,"temph": 58,"tof": 46,"h": 70,"bat": 32,"baro": 104.88,"time": 0,"agx": -476.00,"agy": 717.00}
{"created_at": "2022-10-07.15:59:50", "pitch": -24,"roll": -145,"yaw": -22,"vgx": 0,"vgy": 0,"vgz": 6,"templ": 56,"temph": 58,"tof": 51,"h": 60,"bat": 32,"baro": 104.84,"time": 0,"agx": -646.00,"agy": 648.00}
{"created_at": "2022-10-07.15:59:50", "pitch": -16,"roll": -151,"yaw": -21,"vgx": 0,"vgy": 0,"vgz": 7,"templ": 56,"temph": 58,"tof": 69,"h": 60,"bat": 32,"baro": 104.76,"time": 0,"agx": -1022.00,"agy": 961.00}
{"created_at": "2022-10-07.15:59:51", "pitch": 10,"roll": -172,"yaw": -17,"vgx": 0,"vgy": 0,"vgz": 6,"templ": 56,"temph": 58,"tof": 167,"h": 50,"bat": 32,"baro": 104.59,"time": 0,"agx": 309.00,"agy": 415.00}
{"created_at": "2022-10-07.15:59:51", "pitch": 46,"roll": 155,"yaw": -14,"vgx": 0,"vgy": 0,"vgz": 8,"templ": 56,"temph": 58,"tof": 313,"h": 50,"bat": 32,"baro": 104.59,"time": 0,"agx": 734.00,"agy": -300.00}
{"created_at": "2022-10-07.15:59:51", "pitch": 55,"roll": 52,"yaw": -90,"vgx": 0,"vgy": 0,"vgz": 11,"templ": 56,"temph": 58,"tof": 35,"h": 40,"bat": 32,"baro": 104.51,"time": 0,"agx": 468.00,"agy": -485.00}
{"created_at": "2022-10-07.15:59:51", "pitch": 24,"roll": 0,"yaw": -115,"vgx": 0,"vgy": 0,"vgz": 8,"templ": 56,"temph": 58,"tof": 10,"h": 30,"bat": 32,"baro": 104.48,"time": 0,"agx": 670.00,"agy": -204.00}
{"created_at": "2022-10-07.15:59:51", "pitch": -3,"roll": -16,"yaw": -112,"vgx": 0,"vgy": 0,"vgz": 5,"templ": 57,"temph": 58,"tof": 10,"h": 20,"bat": 32,"baro": 104.44,"time": 0,"agx": -231.00,"agy": 605.00}
{"created_at": "2022-10-07.15:59:51", "pitch": -14,"roll": -26,"yaw": -119,"vgx": 0,"vgy": 0,"vgz": 1,"templ": 57,"temph": 58,"tof": 10,"h": 20,"bat": 32,"baro": 104.49,"time": 0,"agx": -55.00,"agy": 325.00}
{"created_at": "2022-10-07.15:59:51", "pitch": -13,"roll": -26,"yaw": -122,"vgx": 0,"vgy": 0,"vgz": -3,"templ": 57,"temph": 58,"tof": 10,"h": 20,"bat": 32,"baro": 104.61,"time": 0,"agx": -791.00,"agy": 504.00}
{"created_at": "2022-10-07.15:59:51", "pitch": -9,"roll": -23,"yaw": -125,"vgx": 0,"vgy": 0,"vgz": -11,"templ": 57,"temph": 58,"tof": 40,"h": 30,"bat": 32,"baro": 104.74,"time": 0,"agx": -486.00,"agy": 497.00}
{"created_at": "2022-10-07.15:59:51", "pitch": -5,"roll": -19,"yaw": -134,"vgx": 0,"vgy": 0,"vgz": -14,"templ": 57,"temph": 58,"tof": 58,"h": 50,"bat": 32,"baro": 104.92,"time": 0,"agx": -5.00,"agy": 366.00}
{"created_at": "2022-10-07.15:59:51", "pitch": 3,"roll": -16,"yaw": -138,"vgx": 0,"vgy": 0,"vgz": -13,"templ": 57,"temph": 58,"tof": 69,"h": 60,"bat": 32,"baro": 105.00,"time": 0,"agx": 247.00,"agy": 555.00}
{"created_at": "2022-10-07.15:59:52", "pitch": 19,"roll": -8,"yaw": -135,"vgx": 0,"vgy": 0,"vgz": -11,"templ": 57,"temph": 58,"tof": 92,"h": 80,"bat": 32,"baro": 105.13,"time": 0,"agx": 671.00,"agy": -37.00}
{"created_at": "2022-10-07.15:59:52", "pitch": 37,"roll": 22,"yaw": -102,"vgx": 0,"vgy": 0,"vgz": -8,"templ": 57,"temph": 58,"tof": 133,"h": 90,"bat": 32,"baro": 105.21,"time": 0,"agx": 147.00,"agy": -378.00}
{"created_at": "2022-10-07.15:59:52", "pitch": 29,"roll": 53,"yaw": -89,"vgx": 0,"vgy": 0,"vgz": -2,"templ": 57,"temph": 58,"tof": 316,"h": 100,"bat": 32,"baro": 105.17,"time": 0,"agx": 320.00,"agy": -450.00}
{"created_at": "2022-10-07.15:59:52", "pitch": 22,"roll": 78,"yaw": -84,"vgx": 0,"vgy": 0,"vgz": 1,"templ": 57,"temph": 58,"tof": 304,"h": 100,"bat": 32,"baro": 105.08,"time": 0,"agx": 279.00,"agy": -717.00}
{"created_at": "2022-10-07.15:59:52", "pitch": 21,"roll": 93,"yaw": -75,"vgx": 0,"vgy": 0,"vgz": 4,"templ": 57,"temph": 59,"tof": 286,"h": 100,"bat": 32,"baro": 105.05,"time": 0,"agx": -92.00,"agy": -302.00}
{"created_at": "2022-10-07.15:59:52", "pitch": 12,"roll": 85,"yaw": -82,"vgx": 0,"vgy": 0,"vgz": 10,"templ": 57,"temph": 59,"tof": 367,"h": 90,"bat": 32,"baro": 104.93,"time": 0,"agx": -153.00,"agy": -431.00}
{"created_at": "2022-10-07.15:59:52", "pitch": -4,"roll": 62,"yaw": -96,"vgx": 0,"vgy": 0,"vgz": 14,"templ": 57,"temph": 59,"tof": 61,"h": 80,"bat": 32,"baro": 104.77,"time": 0,"agx": -497.00,"agy": -99.00}
{"created_at": "2022-10-07.15:59:52", "pitch": -21,"roll": 16,"yaw": -93,"vgx": 0,"vgy": 0,"vgz": 14,"templ": 57,"temph": 59,"tof": 33,"h": 60,"bat": 32,"baro": 104.63,"time": 0,"agx": -71.00,"agy": 181.00}
{"created_at": "2022-10-07.15:59:52", "pitch": -12,"roll": -18,"yaw": -94,"vgx": 0,"vgy": 0,"vgz": 7,"templ": 57,"temph": 59,"tof": 10,"h": 50,"bat": 32,"baro": 104.54,"time": 0,"agx": -200.00,"agy": 391.00}
{"created_at": "2022-10-07.15:59:52", "pitch": -8,"roll": -31,"yaw": -97,"vgx": 0,"vgy": 0,"vgz": 0,"templ": 57,"temph": 59,"tof": 10,"h": 50,"bat": 32,"baro": 104.60,"time": 0,"agx": -214.00,"agy": 789.00}
{"created_at": "2022-10-07.15:59:53", "pitch": -1,"roll": -35,"yaw": -97,"vgx": 0,"vgy": 0,"vgz": -6,"templ": 57,"temph": 59,"tof": 33,"h": 50,"bat": 32,"baro": 104.64,"time": 0,"agx": -8.00,"agy": 727.00}
{"created_at": "2022-10-07.15:59:53", "pitch": 5,"roll": -29,"yaw": -95,"vgx": 0,"vgy": 0,"vgz": -10,"templ": 57,"temph": 59,"tof": 43,"h": 60,"bat": 32,"baro": 104.84,"time": 0,"agx": 217.00,"agy": 491.00}
{"created_at": "2022-10-07.15:59:53", "pitch": 10,"roll": -16,"yaw": -92,"vgx": 0,"vgy": 0,"vgz": -13,"templ": 57,"temph": 59,"tof": 55,"h": 70,"bat": 32,"baro": 104.92,"time": 0,"agx": 297.00,"agy": 298.00}
{"created_at": "2022-10-07.15:59:53", "pitch": 14,"roll": -3,"yaw": -88,"vgx": 0,"vgy": 0,"vgz": -13,"templ": 57,"temph": 59,"tof": 68,"h": 80,"bat": 32,"baro": 105.01,"time": 0,"agx": 658.00,"agy": -268.00}
{"created_at": "2022-10-07.15:59:53", "pitch": 21,"roll": 18,"yaw": -76,"vgx": 0,"vgy": 0,"vgz": -11,"templ": 57,"temph": 59,"tof": 143,"h": 100,"bat": 32,"baro": 105.09,"time": 0,"agx": 272.00,"agy": -229.00}
{"created_at": "2022-10-07.15:59:53", "pitch": 28,"roll": 58,"yaw": -51,"vgx": 0,"vgy": 0,"vgz": -8,"templ": 57,"temph": 59,"tof": 109,"h": 110,"bat": 32,"baro": 105.10,"time": 0,"agx": -5.00,"agy": 209.00}
{"created_at": "2022-10-07.15:59:53", "pitch": 15,"roll": 92,"yaw": -22,"vgx": 0,"vgy": 0,"vgz": 0,"templ": 57,"temph": 59,"tof": 101,"h": 110,"bat": 32,"baro": 105.09,"time": 0,"agx": -132.00,"agy": -96.00}
{"created_at": "2022-10-07.15:59:53", "pitch": 15,"roll": 85,"yaw": -17,"vgx": 0,"vgy": 0,"vgz": 8,"templ": 57,"temph": 59,"tof": 103,"h": 110,"bat": 32,"baro": 104.92,"time": 0,"agx": -23.00,"agy": -632.00}
{"created_at": "2022-10-07.15:59:53", "pitch": 15,"roll": 57,"yaw": -18,"vgx": 0,"vgy": 0,"vgz": 12,"templ": 57,"temph": 59,"tof": 130,"h": 90,"bat": 32,"baro": 104.74,"time": 0,"agx": 83.00,"agy": -636.00}
{"created_at": "2022-10-07.15:59:53", "pitch": 5,"roll": 34,"yaw": -19,"vgx": 0,"vgy": 0,"vgz": 13,"templ": 57,"temph": 59,"tof": 41,"h": 80,"bat": 32,"baro": 104.62,"time": 0,"agx": -24.00,"agy": -430.00}
{"created_at": "2022-10-07.15:59:54", "pitch": 3,"roll": 18,"yaw": -15,"vgx": 0,"vgy": 0,"vgz": 11,"templ": 57,"temph": 59,"tof": 10,"h": 70,"bat": 32,"baro": 104.53,"time": 0,"agx": 41.00,"agy": -185.00}
{"created_at": "2022-10-07.15:59:54", "pitch": 0,"roll": 8,"yaw": -6,"vgx": 0,"vgy": 0,"vgz": 9,"templ": 57,"temph": 59,"tof": 10,"h": 60,"bat": 32,"baro": 104.46,"time": 0,"agx": -222.00,"agy": -110.00}
{"created_at": "2022-10-07.15:59:54", "pitch": -5,"roll": 0,"yaw": -1,"vgx": 0,"vgy": 0,"vgz": 6,"templ": 57,"temph": 59,"tof": 10,"h": 50,"bat": 32,"baro": 104.45,"time": 0,"agx": -31.00,"agy": -67.00}
{"created_at": "2022-10-07.15:59:54", "pitch": -4,"roll": 0,"yaw": 0,"vgx": 0,"vgy": 0,"vgz": 2,"templ": 57,"temph": 59,"tof": 10,"h": 40,"bat": 32,"baro": 104.46,"time": 0,"agx": 19.00,"agy": 140.00}
{"created_at": "2022-10-07.15:59:54", "pitch": 6,"roll": -16,"yaw": -23,"vgx": 0,"vgy": 0,"vgz": -1,"templ": 57,"temph": 59,"tof": 10,"h": 40,"bat": 32,"baro": 104.48,"time": 0,"agx": 2.00,"agy": 458.00}
{"created_at": "2022-10-07.15:59:54", "pitch": 5,"roll": -21,"yaw": -41,"vgx": 0,"vgy": 0,"vgz": -2,"templ": 57,"temph": 59,"tof": 10,"h": 40,"bat": 32,"baro": 104.48,"time": 0,"agx": 61.00,"agy": -68.00}
{"created_at": "2022-10-07.15:59:54", "pitch": 7,"roll": -22,"yaw": -54,"vgx": 0,"vgy": 0,"vgz": -1,"templ": 57,"temph": 59,"tof": 10,"h": 40,"bat": 32,"baro": 104.45,"time": 0,"agx": -66.00,"agy": 543.00}
{"created_at": "2022-10-07.15:59:54", "pitch": 14,"roll": -12,"yaw": -30,"vgx": 0,"vgy": 0,"vgz": 1,"templ": 57,"temph": 59,"tof": 10,"h": 0,"bat": 32,"baro": 104.48,"time": 0,"agx": 120.00,"agy": 58.00}
{"created_at": "2022-10-07.15:59:54", "pitch": 0,"roll": -4,"yaw": -15,"vgx": 0,"vgy": 0,"vgz": 3,"templ": 57,"temph": 59,"tof": 10,"h": 0,"bat": 32,"baro": 104.47,"time": 0,"agx": 129.00,"agy": 212.00}
{"created_at": "2022-10-07.15:59:54", "pitch": -8,"roll": -1,"yaw": -1,"vgx": 0,"vgy": 0,"vgz": 4,"templ": 57,"temph": 59,"tof": 10,"h": 0,"bat": 32,"baro": 104.48,"time": 0,"agx": 219.00,"agy": 69.00}
{"created_at": "2022-10-07.15:59:55", "pitch": -5,"roll": -1,"yaw": 2,"vgx": 0,"vgy": 0,"vgz": 3,"templ": 57,"temph": 59,"tof": 10,"h": 0,"bat": 32,"baro": 104.44,"time": 0,"agx": -120.00,"agy": 199.00}
{"created_at": "2022-10-07.15:59:55", "pitch": -9,"roll": -3,"yaw": 8,"vgx": 0,"vgy": 0,"vgz": 2,"templ": 57,"temph": 59,"tof": 10,"h": 0,"bat": 32,"baro": 104.41,"time": 0,"agx": -216.00,"agy": 120.00}
{"created_at": "2022-10-07.15:59:55", "pitch": -7,"roll": -9,"yaw": -2,"vgx": 0,"vgy": 0,"vgz": 0,"templ": 57,"temph": 59,"tof": 10,"h": 0,"bat": 32,"baro": 104.45,"time": 0,"agx": -93.00,"agy": 226.00}
{"created_at": "2022-10-07.15:59:55", "pitch": 2,"roll": -4,"yaw": -29,"vgx": 0,"vgy": 0,"vgz": -2,"templ": 57,"temph": 59,"tof": 10,"h": 0,"bat": 32,"baro": 104.49,"time": 0,"agx": -130.00,"agy": -138.00}
{"created_at": "2022-10-07.15:59:55", "pitch": 10,"roll": 3,"yaw": -42,"vgx": 0,"vgy": 0,"vgz": -3,"templ": 57,"temph": 59,"tof": 10,"h": 0,"bat": 32,"baro": 104.45,"time": 0,"agx": -102.00,"agy": 185.00}
{"created_at": "2022-10-07.15:59:55", "pitch": 17,"roll": 1,"yaw": -53,"vgx": 0,"vgy": 0,"vgz": -3,"templ": 57,"temph": 59,"tof": 10,"h": 0,"bat": 32,"baro": 104.55,"time": 0,"agx": -186.00,"agy": -73.00}
{"created_at": "2022-10-07.15:59:55", "pitch": 21,"roll": 0,"yaw": -67,"vgx": 0,"vgy": 0,"vgz": -1,"templ": 57,"temph": 59,"tof": 10,"h": 0,"bat": 32,"baro": 104.57,"time": 0,"agx": -118.00,"agy": -80.00}
{"created_at": "2022-10-07.15:59:55", "pitch": 32,"roll": -5,"yaw": -82,"vgx": 0,"vgy": 0,"vgz": 0,"templ": 57,"temph": 59,"tof": 10,"h": 0,"bat": 32,"baro": 104.59,"time": 0,"agx": -111.00,"agy": 72.00}
{"created_at": "2022-10-07.15:59:55", "pitch": 37,"roll": -8,"yaw": -76,"vgx": 0,"vgy": 0,"vgz": 0,"templ": 57,"temph": 59,"tof": 10,"h": 0,"bat": 32,"baro": 104.56,"time": 0,"agx": 334.00,"agy": 253.00}
{"created_at": "2022-10-07.15:59:55", "pitch": 37,"roll": -7,"yaw": -67,"vgx": 0,"vgy": 0,"vgz": 1,"templ": 57,"temph": 59,"tof": 10,"h": 0,"bat": 32,"baro": 104.58,"time": 0,"agx": 1032.00,"agy": 483.00}
{"created_at": "2022-10-07.15:59:56", "pitch": 39,"roll": -14,"yaw": -71,"vgx": 0,"vgy": 0,"vgz": 1,"templ": 57,"temph": 59,"tof": 35,"h": 0,"bat": 32,"baro": 104.63,"time": 0,"agx": 889.00,"agy": 412.00}
{"created_at": "2022-10-07.15:59:56", "pitch": 40,"roll": -11,"yaw": -65,"vgx": 0,"vgy": 0,"vgz": 2,"templ": 57,"temph": 59,"tof": 59,"h": 0,"bat": 32,"baro": 104.54,"time": 0,"agx": 868.00,"agy": 295.00}
{"created_at": "2022-10-07.15:59:56", "pitch": 43,"roll": -11,"yaw": -60,"vgx": 0,"vgy": 0,"vgz": 2,"templ": 57,"temph": 59,"tof": 78,"h": 0,"bat": 32,"baro": 104.52,"time": 0,"agx": 595.00,"agy": 121.00}
{"created_at": "2022-10-07.15:59:56", "pitch": 45,"roll": -14,"yaw": -59,"vgx": 0,"vgy": 0,"vgz": 1,"templ": 57,"temph": 59,"tof": 51,"h": 0,"bat": 32,"baro": 104.55,"time": 0,"agx": 634.00,"agy": 1.00}
{"created_at": "2022-10-07.15:59:56", "pitch": 51,"roll": -21,"yaw": -56,"vgx": 0,"vgy": 0,"vgz": 0,"templ": 58,"temph": 60,"tof": 10,"h": 0,"bat": 32,"baro": 104.54,"time": 0,"agx": 814.00,"agy": 202.00}
{"created_at": "2022-10-07.15:59:56", "pitch": 56,"roll": -42,"yaw": -63,"vgx": 0,"vgy": 0,"vgz": 0,"templ": 58,"temph": 60,"tof": 10,"h": 0,"bat": 32,"baro": 104.54,"time": 0,"agx": 782.00,"agy": 191.00}
{"created_at": "2022-10-07.15:59:56", "pitch": 63,"roll": -38,"yaw": -51,"vgx": 0,"vgy": 0,"vgz": 0,"templ": 58,"temph": 60,"tof": 10,"h": 0,"bat": 32,"baro": 104.47,"time": 0,"agx": 697.00,"agy": 366.00}
{"created_at": "2022-10-07.15:59:56", "pitch": 64,"roll": -24,"yaw": -34,"vgx": 0,"vgy": 0,"vgz": 0,"templ": 58,"temph": 60,"tof": 10,"h": 0,"bat": 32,"baro": 104.51,"time": 0,"agx": 692.00,"agy": 184.00}
{"created_at": "2022-10-07.15:59:56", "pitch": 62,"roll": -23,"yaw": -40,"vgx": 0,"vgy": 0,"vgz": 0,"templ": 58,"temph": 60,"tof": 10,"h": 0,"bat": 32,"baro": 104.50,"time": 0,"agx": 1081.00,"agy": 172.00}
{"created_at": "2022-10-07.15:59:56", "pitch": 61,"roll": -16,"yaw": -33,"vgx": 0,"vgy": 0,"vgz": 0,"templ": 58,"temph": 60,"tof": 10,"h": 0,"bat": 32,"baro": 104.51,"time": 0,"agx": 758.00,"agy": 194.00}
{"created_at": "2022-10-07.15:59:57", "pitch": 52,"roll": -9,"yaw": -27,"vgx": 0,"vgy": 0,"vgz": 0,"templ": 58,"temph": 60,"tof": 10,"h": 0,"bat": 32,"baro": 104.54,"time": 0,"agx": 816.00,"agy": 120.00}
{"created_at": "2022-10-07.15:59:57", "pitch": 54,"roll": -17,"yaw": -23,"vgx": 0,"vgy": 0,"vgz": 0,"templ": 58,"temph": 60,"tof": 10,"h": 0,"bat": 32,"baro": 104.56,"time": 0,"agx": 680.00,"agy": 100.00}
{"created_at": "2022-10-07.15:59:57", "pitch": 52,"roll": -23,"yaw": -19,"vgx": 0,"vgy": 0,"vgz": 0,"templ": 58,"temph": 60,"tof": 10,"h": 0,"bat": 32,"baro": 104.56,"time": 0,"agx": 768.00,"agy": 296.00}
{"created_at": "2022-10-07.15:59:57", "pitch": 48,"roll": -24,"yaw": -6,"vgx": 0,"vgy": 0,"vgz": 0,"templ": 58,"temph": 60,"tof": 10,"h": 0,"bat": 32,"baro": 104.52,"time": 0,"agx": 708.00,"agy": 142.00}
{"created_at": "2022-10-07.15:59:57", "pitch": 43,"roll": -19,"yaw": 9,"vgx": 0,"vgy": 0,"vgz": -1,"templ": 58,"temph": 59,"tof": 10,"h": 0,"bat": 32,"baro": 104.53,"time": 0,"agx": 679.00,"agy": 235.00}
{"created_at": "2022-10-07.15:59:57", "pitch": 38,"roll": -22,"yaw": 16,"vgx": 0,"vgy": 0,"vgz": -1,"templ": 58,"temph": 59,"tof": 10,"h": 0,"bat": 32,"baro": 104.60,"time": 0,"agx": 737.00,"agy": 262.00}
{"created_at": "2022-10-07.15:59:57", "pitch": 33,"roll": -21,"yaw": 21,"vgx": 0,"vgy": 0,"vgz": -1,"templ": 58,"temph": 59,"tof": 10,"h": 0,"bat": 32,"baro": 104.66,"time": 0,"agx": 656.00,"agy": 378.00}
{"created_at": "2022-10-07.15:59:57", "pitch": 29,"roll": -22,"yaw": 20,"vgx": 0,"vgy": 0,"vgz": -2,"templ": 58,"temph": 59,"tof": 10,"h": 0,"bat": 32,"baro": 104.59,"time": 0,"agx": 488.00,"agy": 436.00}
{"created_at": "2022-10-07.15:59:57", "pitch": 26,"roll": -23,"yaw": 22,"vgx": 0,"vgy": 0,"vgz": -2,"templ": 58,"temph": 59,"tof": 10,"h": 0,"bat": 32,"baro": 104.62,"time": 0,"agx": 302.00,"agy": 322.00}
{"created_at": "2022-10-07.15:59:57", "pitch": 22,"roll": -23,"yaw": 22,"vgx": 0,"vgy": 0,"vgz": -2,"templ": 58,"temph": 59,"tof": 10,"h": 0,"bat": 32,"baro": 104.59,"time": 0,"agx": 388.00,"agy": 267.00}
{"created_at": "2022-10-07.15:59:58", "pitch": 19,"roll": -32,"yaw": 17,"vgx": 0,"vgy": 0,"vgz": -2,"templ": 58,"temph": 59,"tof": 10,"h": 0,"bat": 32,"baro": 104.65,"time": 0,"agx": 616.00,"agy": 308.00}
{"created_at": "2022-10-07.15:59:58", "pitch": 14,"roll": -18,"yaw": 33,"vgx": 0,"vgy": 0,"vgz": -3,"templ": 58,"temph": 59,"tof": 10,"h": 0,"bat": 32,"baro": 104.68,"time": 0,"agx": 296.00,"agy": 702.00}
{"created_at": "2022-10-07.15:59:58", "pitch": 8,"roll": -18,"yaw": 32,"vgx": 0,"vgy": 0,"vgz": -4,"templ": 58,"temph": 59,"tof": 10,"h": 0,"bat": 32,"baro": 104.77,"time": 0,"agx": 414.00,"agy": 198.00}
{"created_at": "2022-10-07.15:59:58", "pitch": 11,"roll": -14,"yaw": 43,"vgx": 0,"vgy": 0,"vgz": -4,"templ": 58,"temph": 59,"tof": 10,"h": 0,"bat": 32,"baro": 104.74,"time": 0,"agx": 333.00,"agy": 270.00}
{"created_at": "2022-10-07.15:59:58", "pitch": 14,"roll": -11,"yaw": 58,"vgx": 0,"vgy": 0,"vgz": -3,"templ": 57,"temph": 60,"tof": 10,"h": 0,"bat": 32,"baro": 104.82,"time": 0,"agx": 366.00,"agy": 280.00}
{"created_at": "2022-10-07.15:59:58", "pitch": 20,"roll": -7,"yaw": 79,"vgx": 0,"vgy": 0,"vgz": -3,"templ": 57,"temph": 60,"tof": 10,"h": 0,"bat": 32,"baro": 104.90,"time": 0,"agx": 287.00,"agy": 341.00}
{"created_at": "2022-10-07.15:59:58", "pitch": 22,"roll": -3,"yaw": 99,"vgx": 0,"vgy": 0,"vgz": -3,"templ": 57,"temph": 60,"tof": 10,"h": 0,"bat": 32,"baro": 104.88,"time": 0,"agx": 268.00,"agy": 336.00}
{"created_at": "2022-10-07.15:59:58", "pitch": 23,"roll": 0,"yaw": 116,"vgx": 0,"vgy": 0,"vgz": -3,"templ": 57,"temph": 60,"tof": 10,"h": 0,"bat": 32,"baro": 104.87,"time": 0,"agx": 440.00,"agy": 225.00}
{"created_at": "2022-10-07.15:59:58", "pitch": 24,"roll": 2,"yaw": 132,"vgx": 0,"vgy": 0,"vgz": -3,"templ": 57,"temph": 60,"tof": 10,"h": 0,"bat": 32,"baro": 104.93,"time": 0,"agx": 474.00,"agy": 153.00}
{"created_at": "2022-10-07.15:59:58", "pitch": 22,"roll": 2,"yaw": 146,"vgx": 0,"vgy": 0,"vgz": -3,"templ": 57,"temph": 60,"tof": 10,"h": 0,"bat": 32,"baro": 104.97,"time": 0,"agx": 366.00,"agy": 73.00}
{"created_at": "2022-10-07.15:59:59", "pitch": 19,"roll": 2,"yaw": 159,"vgx": 0,"vgy": 0,"vgz": -2,"templ": 57,"temph": 60,"tof": 10,"h": 0,"bat": 32,"baro": 105.00,"time": 0,"agx": 263.00,"agy": 74.00}
{"created_at": "2022-10-07.15:59:59", "pitch": 16,"roll": 5,"yaw": 174,"vgx": 0,"vgy": 0,"vgz": -2,"templ": 57,"temph": 60,"tof": 10,"h": 0,"bat": 32,"baro": 104.98,"time": 0,"agx": 333.00,"agy": 138.00}
{"created_at": "2022-10-07.15:59:59", "pitch": 11,"roll": 8,"yaw": -166,"vgx": 0,"vgy": 0,"vgz": -2,"templ": 57,"temph": 60,"tof": 10,"h": 0,"bat": 32,"baro": 105.02,"time": 0,"agx": 352.00,"agy": 95.00}
{"created_at": "2022-10-07.15:59:59", "pitch": 2,"roll": 11,"yaw": -147,"vgx": 0,"vgy": 0,"vgz": -2,"templ": 57,"temph": 60,"tof": 10,"h": 0,"bat": 32,"baro": 105.05,"time": 0,"agx": 125.00,"agy": -25.00}
{"created_at": "2022-10-07.15:59:59", "pitch": 0,"roll": 11,"yaw": -136,"vgx": 0,"vgy": 0,"vgz": -2,"templ": 58,"temph": 60,"tof": 10,"h": 0,"bat": 32,"baro": 105.03,"time": 0,"agx": 4.00,"agy": -123.00}
{"created_at": "2022-10-07.15:59:59", "pitch": -5,"roll": 9,"yaw": -129,"vgx": 0,"vgy": 0,"vgz": -2,"templ": 58,"temph": 60,"tof": 10,"h": 0,"bat": 32,"baro": 105.03,"time": 0,"agx": -45.00,"agy": -190.00}
{"created_at": "2022-10-07.15:59:59", "pitch": -11,"roll": 7,"yaw": -129,"vgx": 0,"vgy": 0,"vgz": -1,"templ": 58,"temph": 60,"tof": 10,"h": 0,"bat": 32,"baro": 105.10,"time": 0,"agx": -238.00,"agy": 44.00}
{"created_at": "2022-10-07.15:59:59", "pitch": -15,"roll": 4,"yaw": -127,"vgx": 0,"vgy": 0,"vgz": 0,"templ": 58,"temph": 60,"tof": 10,"h": 0,"bat": 32,"baro": 105.07,"time": 0,"agx": -250.00,"agy": -39.00}
{"created_at": "2022-10-07.15:59:59", "pitch": -17,"roll": 2,"yaw": -124,"vgx": 0,"vgy": 0,"vgz": 0,"templ": 58,"temph": 60,"tof": 10,"h": 0,"bat": 32,"baro": 105.10,"time": 0,"agx": -302.00,"agy": -64.00}
{"created_at": "2022-10-07.15:59:59", "pitch": -19,"roll": 0,"yaw": -122,"vgx": 0,"vgy": 0,"vgz": 0,"templ": 58,"temph": 60,"tof": 10,"h": 0,"bat": 32,"baro": 105.07,"time": 0,"agx": -288.00,"agy": 168.00}
{"created_at": "2022-10-07.16:00:00", "pitch": -21,"roll": -2,"yaw": -123,"vgx": 0,"vgy": 0,"vgz": 0,"templ": 58,"temph": 60,"tof": 10,"h": 0,"bat": 32,"baro": 105.10,"time": 0,"agx": -364.00,"agy": 71.00}
{"created_at": "2022-10-07.16:00:00", "pitch": -26,"roll": -6,"yaw": -118,"vgx": 0,"vgy": 0,"vgz": 0,"templ": 58,"temph": 60,"tof": 10,"h": 0,"bat": 32,"baro": 105.11,"time": 0,"agx": -420.00,"agy": 152.00}
{"created_at": "2022-10-07.16:00:00", "pitch": -27,"roll": -5,"yaw": -127,"vgx": 0,"vgy": 0,"vgz": 0,"templ": 58,"temph": 60,"tof": 10,"h": 0,"bat": 32,"baro": 105.12,"time": 0,"agx": -379.00,"agy": 93.00}
{"created_at": "2022-10-07.16:00:00", "pitch": -27,"roll": -5,"yaw": -131,"vgx": 0,"vgy": 0,"vgz": 1,"templ": 58,"temph": 60,"tof": 10,"h": 0,"bat": 32,"baro": 105.14,"time": 0,"agx": -438.00,"agy": 209.00}
{"created_at": "2022-10-07.16:00:00", "pitch": -28,"roll": -1,"yaw": -140,"vgx": 0,"vgy": 0,"vgz": 1,"templ": 58,"temph": 61,"tof": 10,"h": 0,"bat": 32,"baro": 105.18,"time": 0,"agx": -444.00,"agy": 67.00}
{"created_at": "2022-10-07.16:00:00", "pitch": -27,"roll": 3,"yaw": -147,"vgx": 0,"vgy": 0,"vgz": 2,"templ": 58,"temph": 61,"tof": 10,"h": 0,"bat": 32,"baro": 105.13,"time": 0,"agx": -452.00,"agy": -57.00}
{"created_at": "2022-10-07.16:00:00", "pitch": -27,"roll": 10,"yaw": -164,"vgx": 0,"vgy": 0,"vgz": 2,"templ": 58,"temph": 61,"tof": 10,"h": 0,"bat": 32,"baro": 105.17,"time": 0,"agx": -426.00,"agy": -127.00}
{"created_at": "2022-10-07.16:00:00", "pitch": -20,"roll": 20,"yaw": 177,"vgx": 0,"vgy": 0,"vgz": 2,"templ": 58,"temph": 61,"tof": 10,"h": 0,"bat": 32,"baro": 105.15,"time": 0,"agx": -122.00,"agy": -386.00}
{"created_at": "2022-10-07.16:00:00", "pitch": -16,"roll": 26,"yaw": 165,"vgx": 0,"vgy": 0,"vgz": 3,"templ": 58,"temph": 61,"tof": 10,"h": 0,"bat": 32,"baro": 105.07,"time": 0,"agx": -79.00,"agy": -519.00}
{"created_at": "2022-10-07.16:00:00", "pitch": -10,"roll": 32,"yaw": 151,"vgx": 0,"vgy": 0,"vgz": 3,"templ": 58,"temph": 61,"tof": 10,"h": 0,"bat": 32,"baro": 105.06,"time": 0,"agx": -31.00,"agy": -559.00}
{"created_at": "2022-10-07.16:00:01", "pitch": 0,"roll": 38,"yaw": 133,"vgx": 0,"vgy": 0,"vgz": 3,"templ": 58,"temph": 61,"tof": 10,"h": 0,"bat": 32,"baro": 105.06,"time": 0,"agx": 177.00,"agy": -751.00}
{"created_at": "2022-10-07.16:00:01", "pitch": 11,"roll": 43,"yaw": 119,"vgx": 0,"vgy": 0,"vgz": 3,"templ": 58,"temph": 61,"tof": 10,"h": 0,"bat": 32,"baro": 105.01,"time": 0,"agx": 250.00,"agy": -639.00}
{"created_at": "2022-10-07.16:00:01", "pitch": 24,"roll": 46,"yaw": 102,"vgx": 0,"vgy": 0,"vgz": 2,"templ": 58,"temph": 61,"tof": 10,"h": 0,"bat": 32,"baro": 104.96,"time": 0,"agx": 583.00,"agy": -784.00}
{"created_at": "2022-10-07.16:00:01", "pitch": 32,"roll": 44,"yaw": 84,"vgx": 0,"vgy": 0,"vgz": 0,"templ": 58,"temph": 61,"tof": 10,"h": 0,"bat": 32,"baro": 105.03,"time": 0,"agx": 619.00,"agy": -819.00}
{"created_at": "2022-10-07.16:00:01", "pitch": 39,"roll": 37,"yaw": 63,"vgx": 0,"vgy": 0,"vgz": 0,"templ": 58,"temph": 61,"tof": 10,"h": 0,"bat": 32,"baro": 105.01,"time": 0,"agx": 744.00,"agy": -554.00}
{"created_at": "2022-10-07.16:00:01", "pitch": 46,"roll": 26,"yaw": 38,"vgx": 0,"vgy": 0,"vgz": 0,"templ": 58,"temph": 61,"tof": 10,"h": 0,"bat": 32,"baro": 105.02,"time": 0,"agx": 782.00,"agy": -439.00}
{"created_at": "2022-10-07.16:00:01", "pitch": 50,"roll": 19,"yaw": 22,"vgx": 0,"vgy": 0,"vgz": -1,"templ": 58,"temph": 61,"tof": 10,"h": 0,"bat": 32,"baro": 105.01,"time": 0,"agx": 950.00,"agy": -337.00}
{"created_at": "2022-10-07.16:00:01", "pitch": 49,"roll": 10,"yaw": 3,"vgx": 0,"vgy": 0,"vgz": -2,"templ": 58,"temph": 61,"tof": 10,"h": 0,"bat": 32,"baro": 105.03,"time": 0,"agx": 987.00,"agy": -137.00}
{"created_at": "2022-10-07.16:00:01", "pitch": 44,"roll": 0,"yaw": -18,"vgx": 0,"vgy": 0,"vgz": -3,"templ": 58,"temph": 61,"tof": 10,"h": 0,"bat": 32,"baro": 105.05,"time": 0,"agx": 775.00,"agy": -65.00}
{"created_at": "2022-10-07.16:00:01", "pitch": 39,"roll": -4,"yaw": -37,"vgx": 0,"vgy": 0,"vgz": -3,"templ": 58,"temph": 61,"tof": 10,"h": 0,"bat": 32,"baro": 105.12,"time": 0,"agx": 856.00,"agy": -56.00}
{"created_at": "2022-10-07.16:00:02", "pitch": 28,"roll": -4,"yaw": -52,"vgx": 0,"vgy": 0,"vgz": -2,"templ": 58,"temph": 61,"tof": 10,"h": 0,"bat": 32,"baro": 105.16,"time": 0,"agx": 546.00,"agy": 36.00}
{"created_at": "2022-10-07.16:00:02", "pitch": 17,"roll": -1,"yaw": -66,"vgx": 0,"vgy": 0,"vgz": -1,"templ": 58,"temph": 61,"tof": 10,"h": 0,"bat": 32,"baro": 105.19,"time": 0,"agx": 326.00,"agy": -35.00}
{"created_at": "2022-10-07.16:00:02", "pitch": 12,"roll": 2,"yaw": -72,"vgx": 0,"vgy": 0,"vgz": 0,"templ": 58,"temph": 61,"tof": 10,"h": 0,"bat": 32,"baro": 105.16,"time": 0,"agx": 113.00,"agy": -10.00}
{"created_at": "2022-10-07.16:00:02", "pitch": 15,"roll": 1,"yaw": -84,"vgx": 0,"vgy": 0,"vgz": 1,"templ": 58,"temph": 61,"tof": 10,"h": 0,"bat": 32,"baro": 105.13,"time": 0,"agx": 406.00,"agy": 108.00}
{"created_at": "2022-10-07.16:00:02", "pitch": 13,"roll": 0,"yaw": -92,"vgx": 0,"vgy": 0,"vgz": 2,"templ": 59,"temph": 61,"tof": 10,"h": 0,"bat": 32,"baro": 105.10,"time": 0,"agx": 357.00,"agy": -156.00}
{"created_at": "2022-10-07.16:00:02", "pitch": 6,"roll": -3,"yaw": -93,"vgx": 0,"vgy": 0,"vgz": 4,"templ": 59,"temph": 61,"tof": 10,"h": 0,"bat": 32,"baro": 105.09,"time": 0,"agx": 215.00,"agy": -50.00}
{"created_at": "2022-10-07.16:00:02", "pitch": 0,"roll": -5,"yaw": -89,"vgx": 0,"vgy": 0,"vgz": 6,"templ": 59,"temph": 61,"tof": 10,"h": 0,"bat": 32,"baro": 105.06,"time": 0,"agx": -143.00,"agy": 86.00}
{"created_at": "2022-10-07.16:00:02", "pitch": -1,"roll": -6,"yaw": -88,"vgx": 0,"vgy": 0,"vgz": 7,"templ": 59,"temph": 61,"tof": 10,"h": -10,"bat": 32,"baro": 104.94,"time": 0,"agx": -145.00,"agy": 156.00}
{"created_at": "2022-10-07.16:00:02", "pitch": 1,"roll": -7,"yaw": -87,"vgx": 0,"vgy": 0,"vgz": 8,"templ": 59,"temph": 61,"tof": 10,"h": -10,"bat": 32,"baro": 104.83,"time": 0,"agx": -115.00,"agy": 173.00}
{"created_at": "2022-10-07.16:00:03", "pitch": 5,"roll": -14,"yaw": -82,"vgx": 0,"vgy": 0,"vgz": 6,"templ": 59,"temph": 61,"tof": 10,"h": -20,"bat": 32,"baro": 104.72,"time": 0,"agx": 91.00,"agy": 176.00}
{"created_at": "2022-10-07.16:00:03", "pitch": 10,"roll": -19,"yaw": -73,"vgx": 0,"vgy": 0,"vgz": 4,"templ": 59,"temph": 61,"tof": 10,"h": -30,"bat": 32,"baro": 104.69,"time": 0,"agx": 39.00,"agy": 382.00}
{"created_at": "2022-10-07.16:00:03", "pitch": 19,"roll": -19,"yaw": -57,"vgx": 0,"vgy": 0,"vgz": 2,"templ": 59,"temph": 61,"tof": 10,"h": -30,"bat": 32,"baro": 104.63,"time": 0,"agx": 206.00,"agy": 567.00}
{"created_at": "2022-10-07.16:00:03", "pitch": 18,"roll": -20,"yaw": -48,"vgx": 0,"vgy": 0,"vgz": 1,"templ": 59,"temph": 61,"tof": 10,"h": -30,"bat": 32,"baro": 104.66,"time": 0,"agx": 415.00,"agy": 356.00}
{"created_at": "2022-10-07.16:00:03", "pitch": 22,"roll": -14,"yaw": -36,"vgx": 0,"vgy": 0,"vgz": 0,"templ": 59,"temph": 61,"tof": 10,"h": -40,"bat": 32,"baro": 104.58,"time": 0,"agx": 408.00,"agy": 226.00}
{"created_at": "2022-10-07.16:00:03", "pitch": 26,"roll": -12,"yaw": -29,"vgx": 0,"vgy": 0,"vgz": 0,"templ": 58,"temph": 61,"tof": 10,"h": -40,"bat": 32,"baro": 104.64,"time": 0,"agx": 543.00,"agy": 84.00}
{"created_at": "2022-10-07.16:00:03", "pitch": 24,"roll": -11,"yaw": -24,"vgx": 0,"vgy": 0,"vgz": -1,"templ": 58,"temph": 61,"tof": 10,"h": 0,"bat": 32,"baro": 104.64,"time": 0,"agx": 436.00,"agy": 141.00}
{"created_at": "2022-10-07.16:00:03", "pitch": 16,"roll": -9,"yaw": -23,"vgx": 0,"vgy": 0,"vgz": -1,"templ": 58,"temph": 61,"tof": 10,"h": 0,"bat": 32,"baro": 104.65,"time": 0,"agx": 466.00,"agy": 43.00}
{"created_at": "2022-10-07.16:00:03", "pitch": 10,"roll": -12,"yaw": -22,"vgx": 0,"vgy": 0,"vgz": 0,"templ": 58,"temph": 61,"tof": 10,"h": 0,"bat": 32,"baro": 104.65,"time": 0,"agx": 390.00,"agy": -62.00}
{"created_at": "2022-10-07.16:00:03", "pitch": 10,"roll": -14,"yaw": -13,"vgx": 0,"vgy": 0,"vgz": 1,"templ": 58,"temph": 61,"tof": 10,"h": 0,"bat": 32,"baro": 104.63,"time": 0,"agx": 165.00,"agy": 218.00}
{"created_at": "2022-10-07.16:00:03", "pitch": 13,"roll": -12,"yaw": -7,"vgx": 0,"vgy": 0,"vgz": 3,"templ": 58,"temph": 61,"tof": 10,"h": 0,"bat": 32,"baro": 104.60,"time": 0,"agx": 46.00,"agy": 258.00}
{"created_at": "2022-10-07.16:00:04", "pitch": 9,"roll": -19,"yaw": -18,"vgx": 0,"vgy": 0,"vgz": 4,"templ": 58,"temph": 61,"tof": 10,"h": 0,"bat": 32,"baro": 104.59,"time": 0,"agx": 14.00,"agy": 515.00}
{"created_at": "2022-10-07.16:00:04", "pitch": 5,"roll": -26,"yaw": -36,"vgx": 0,"vgy": 0,"vgz": 3,"templ": 58,"temph": 61,"tof": 10,"h": 0,"bat": 32,"baro": 104.56,"time": 0,"agx": -113.00,"agy": 589.00}
{"created_at": "2022-10-07.16:00:04", "pitch": 0,"roll": -29,"yaw": -58,"vgx": 0,"vgy": 0,"vgz": 1,"templ": 58,"temph": 61,"tof": 10,"h": 0,"bat": 32,"baro": 104.55,"time": 0,"agx": 257.00,"agy": 604.00}
{"created_at": "2022-10-07.16:00:04", "pitch": 2,"roll": -27,"yaw": -68,"vgx": 0,"vgy": 0,"vgz": 0,"templ": 58,"temph": 61,"tof": 10,"h": 0,"bat": 32,"baro": 104.50,"time": 0,"agx": 226.00,"agy": 535.00}
{"created_at": "2022-10-07.16:00:04", "pitch": 5,"roll": -28,"yaw": -70,"vgx": 0,"vgy": 0,"vgz": 0,"templ": 59,"temph": 60,"tof": 10,"h": 0,"bat": 32,"baro": 104.48,"time": 0,"agx": 117.00,"agy": 314.00}
{"created_at": "2022-10-07.16:00:04", "pitch": 8,"roll": -27,"yaw": -63,"vgx": 0,"vgy": 0,"vgz": 1,"templ": 59,"temph": 60,"tof": 10,"h": 0,"bat": 32,"baro": 104.48,"time": 0,"agx": 272.00,"agy": 515.00}
{"created_at": "2022-10-07.16:00:04", "pitch": 7,"roll": -32,"yaw": -50,"vgx": 0,"vgy": 0,"vgz": 2,"templ": 59,"temph": 60,"tof": 10,"h": 0,"bat": 32,"baro": 104.50,"time": 0,"agx": 168.00,"agy": 629.00}
{"created_at": "2022-10-07.16:00:04", "pitch": 6,"roll": -35,"yaw": -42,"vgx": 0,"vgy": 0,"vgz": 0,"templ": 59,"temph": 60,"tof": 10,"h": 0,"bat": 32,"baro": 104.46,"time": 0,"agx": -47.00,"agy": 655.00}
{"created_at": "2022-10-07.16:00:04", "pitch": 10,"roll": -36,"yaw": -39,"vgx": 0,"vgy": 0,"vgz": 0,"templ": 59,"temph": 60,"tof": 10,"h": 0,"bat": 32,"baro": 104.45,"time": 0,"agx": 240.00,"agy": 531.00}
{"created_at": "2022-10-07.16:00:05", "pitch": 16,"roll": -34,"yaw": -31,"vgx": 0,"vgy": 0,"vgz": 0,"templ": 59,"temph": 60,"tof": 10,"h": 0,"bat": 32,"baro": 104.46,"time": 0,"agx": 316.00,"agy": 579.00}
